City_ID,City,Lat,Lng,Max Temp,Humidity,Cloudiness,Wind Speed,Country,Date
0,troitsko-pechorsk,62.7084,56.1964,-18.89,100,94,1.08,RU,1675541509
1,port-cartier,50.0334,-66.8654,-19.03,69,100,8.82,CA,1675541510
2,san patricio,28.017,-97.5169,20.97,52,61,4.33,US,1675541223
3,ushuaia,-54.8,-68.3,12.81,50,0,1.03,AR,1675541133
4,palu,-0.8917,119.8707,23.83,94,100,0.83,ID,1675541266
5,mataura,-46.1927,168.8643,21.16,74,100,2.99,NZ,1675541200
6,taltal,-25.4,-70.4833,22.47,74,14,1.6,CL,1675541510
7,rikitea,-23.1203,-134.9692,25.85,76,3,7.04,PF,1675541189
8,pombas,17.1503,-25.0201,20.88,61,24,7.4,CV,1675541510
9,berlevag,70.8578,29.0864,-2.0,86,100,3.6,NO,1675541511
10,guerrero negro,27.9769,-114.0611,20.87,35,0,4.19,MX,1675541252
11,east london,-33.0153,27.9116,24.45,82,100,7.59,ZA,1675541185
12,saskylakh,71.9167,114.0833,-42.58,100,77,1.17,RU,1675541212
13,bethel,41.3712,-73.414,-7.36,36,75,3.6,US,1675540989
14,muros,42.7762,-9.0603,11.16,79,1,4.22,ES,1675541194
15,mahebourg,-20.4081,57.7,26.25,83,40,2.57,MU,1675540924
16,bambous virieux,-20.3428,57.7575,26.23,84,43,4.67,MU,1675541431
17,vaini,-21.2,-175.2,27.09,89,20,4.63,TO,1675540894
18,galle,6.0367,80.217,24.96,86,23,1.65,LK,1675541511
19,ponta do sol,32.6667,-17.1,17.62,61,23,4.39,PT,1675541220
20,kapaa,22.0752,-159.319,23.18,94,100,6.69,US,1675541175
21,chippewa falls,44.9369,-91.3929,-1.99,63,75,2.06,US,1675541512
22,san cristobal,7.7669,-72.225,26.1,34,11,3.15,VE,1675541220
23,ust-koksa,50.2696,85.6108,-7.66,98,100,0.14,RU,1675541512
24,saint-philippe,-21.3585,55.7679,25.77,87,98,4.51,RE,1675541247
25,karratha,-20.7377,116.8463,31.17,48,76,4.64,AU,1675541512
26,enid,36.3956,-97.8784,17.77,35,0,14.4,US,1675541275
27,coihaique,-45.5752,-72.0662,29.97,26,20,2.57,CL,1675541426
28,busselton,-33.65,115.3333,23.51,45,93,3.33,AU,1675541203
29,guasdualito,7.2424,-70.7324,33.23,34,79,3.33,VE,1675541513
30,hermanus,-34.4187,19.2345,18.78,94,19,3.33,ZA,1675541195
31,port alfred,-33.5906,26.891,23.43,86,100,0.89,ZA,1675541213
32,arraial do cabo,-22.9661,-42.0278,32.98,62,0,5.14,BR,1675541175
33,lorengau,-2.0226,147.2712,27.15,73,100,1.87,PG,1675541270
34,norman wells,65.282,-126.8329,-25.17,96,99,1.57,CA,1675541455
35,tasiilaq,65.6145,-37.6368,-3.91,87,100,6.02,GL,1675541032
36,mazagao,-0.115,-51.2894,26.03,94,99,2.35,BR,1675541513
37,hamilton,39.1834,-84.5333,8.66,39,100,8.23,US,1675541053
38,ayan,56.45,138.1667,-23.23,88,83,2.38,RU,1675541514
39,verkhnevilyuysk,63.4453,120.3167,-34.84,100,100,1.65,RU,1675541514
40,puerto ayora,-0.7393,-90.3518,29.98,88,34,3.58,EC,1675541433
41,muhos,64.808,25.9931,-5.12,94,100,2.58,FI,1675541514
42,ostrovnoy,68.0531,39.5131,-10.8,85,99,4.73,RU,1675541514
43,maumere,-8.6199,122.2111,25.55,85,100,1.3,ID,1675541515
44,tuatapere,-46.1333,167.6833,19.09,95,100,2.58,NZ,1675541184
45,veraval,20.9,70.3667,21.76,42,21,2.38,IN,1675541515
46,punta arenas,-53.15,-70.9167,10.06,93,100,3.09,CL,1675541176
47,yining,29.0361,114.5636,6.94,94,98,0.62,CN,1675541515
48,barrow,71.2906,-156.7887,-30.99,76,75,3.09,US,1675541214
49,castro,-24.7911,-50.0119,21.52,85,60,4.12,BR,1675541015
50,yellowknife,62.456,-114.3525,-27.71,63,75,1.03,CA,1675541180
51,victoria,22.2855,114.1577,18.03,85,100,4.92,HK,1675541454
52,baykit,61.67,96.37,-15.83,99,99,0.76,RU,1675541516
53,bengkulu,-3.8004,102.2655,23.32,90,100,1.92,ID,1675541226
54,basco,20.4487,121.9702,23.83,79,21,10.1,PH,1675541516
55,iskateley,67.6803,53.1512,-16.37,97,56,3.62,RU,1675541516
56,kaitangata,-46.2817,169.8464,21.48,68,100,2.5,NZ,1675541146
57,hithadhoo,-0.6,73.0833,27.31,73,98,6.76,MV,1675540887
58,prince rupert,54.3161,-130.3201,7.05,93,100,7.2,CA,1675541517
59,bluff,-46.6,168.3333,19.08,80,100,4.89,NZ,1675541187
60,cidreira,-30.1811,-50.2056,25.72,65,71,4.61,BR,1675541258
61,sobolevo,54.4299,31.8996,-5.11,95,100,5.29,RU,1675541517
62,butaritari,3.0707,172.7902,27.35,80,73,8.82,KI,1675540941
63,berdigestyakh,62.0989,126.6992,-34.99,100,99,0.96,RU,1675541517
64,bud,39.447,-86.1758,8.01,42,74,7.76,US,1675541518
65,odienne,9.51,-7.5692,28.3,15,3,1.4,CI,1675541518
66,albany,42.6001,-73.9662,-11.77,42,54,0.89,US,1675540920
67,kawalu,-7.3817,108.2082,22.25,92,93,1.1,ID,1675541518
68,jiazi,22.8779,116.067,15.77,87,100,6.64,CN,1675541518
69,kodiak,57.79,-152.4072,-4.27,86,0,2.57,US,1675541217
70,asau,46.4333,26.4,-3.49,95,100,4.63,RO,1675541516
71,sibolga,1.7427,98.7792,24.27,88,100,1.45,ID,1675541519
72,alofi,-19.0595,-169.9187,27.94,78,100,3.09,NU,1675541229
73,porirua,-41.1333,174.85,22.42,52,84,0.89,NZ,1675541247
74,sitka,57.0531,-135.33,1.94,87,100,1.54,US,1675541371
75,ulladulla,-35.35,150.4667,13.61,75,0,2.09,AU,1675541519
76,atuona,-9.8,-139.0333,25.68,79,22,8.01,PF,1675541203
77,mount pleasant,32.7941,-79.8626,12.08,63,0,6.17,US,1675541520
78,vila velha,-20.3297,-40.2925,29.97,78,0,7.2,BR,1675541453
79,dwarka,22.2394,68.9678,20.73,62,74,4.16,IN,1675541520
80,banda aceh,5.5577,95.3222,24.82,86,94,1.37,ID,1675541520
81,lagoa,39.05,-27.9833,15.08,87,5,7.67,PT,1675541225
82,chokurdakh,70.6333,147.9167,-34.37,99,51,3.48,RU,1675541520
83,pemangkat,1.1667,108.9667,23.95,92,100,2.03,ID,1675541521
84,leshukonskoye,64.8989,45.7622,-21.62,100,96,1.28,RU,1675541521
85,meulaboh,4.1363,96.1285,23.87,88,96,1.68,ID,1675541479
86,severo-kurilsk,50.6789,156.125,-3.4,73,100,2.88,RU,1675541476
87,afrikanda,67.4429,32.7828,-18.39,97,85,1.37,RU,1675541522
88,dondo,-19.6094,34.7431,24.68,84,8,2.02,MZ,1675541522
89,imeni poliny osipenko,52.4201,136.4853,-25.71,99,100,1.09,RU,1675541522
90,mao,39.8885,4.2658,10.31,81,0,2.57,ES,1675541522
91,coxim,-18.5067,-54.76,27.26,76,100,2.54,BR,1675541523
92,wajir,1.7471,40.0573,29.92,26,100,5.04,KE,1675541523
93,gravdal,68.1214,13.5031,1.53,97,100,13.02,NO,1675541523
94,cabo san lucas,22.8909,-109.9124,27.01,50,0,3.09,MX,1675541524
95,rio grande,-32.035,-52.0986,29.06,57,0,7.53,BR,1675541475
96,nisia floresta,-6.0911,-35.2086,29.45,68,87,5.61,BR,1675541524
97,nuuk,64.1835,-51.7216,-14.66,100,40,13.38,GL,1675541525
98,boguchany,58.3814,97.4531,-14.55,98,98,1.29,RU,1675541525
99,tuktoyaktuk,69.4541,-133.0374,-42.0,66,0,1.54,CA,1675541189
100,sao filipe,14.8961,-24.4956,22.25,62,53,5.88,CV,1675541233
101,molteno,-31.3968,26.3625,19.41,57,94,4.56,ZA,1675541525
102,bredasdorp,-34.5322,20.0403,22.04,81,0,1.78,ZA,1675541210
103,riyadh,24.6877,46.7219,16.08,50,0,6.13,SA,1675541321
104,saint-pierre,-21.3393,55.4781,25.82,78,0,1.54,RE,1675541239
105,khatanga,71.9667,102.5,-38.73,100,54,2.19,RU,1675541204
106,acapulco,16.8634,-99.8901,30.9,48,0,3.09,MX,1675541338
107,komsomolskiy,40.4272,71.7189,4.4,87,100,3.09,UZ,1675540906
108,akyab,20.15,92.9,17.83,64,88,4.09,MM,1675541526
109,tevaitoa,-16.7833,-151.5,27.34,72,32,8.14,PF,1675541528
110,iqaluit,63.7506,-68.5145,-35.15,66,20,8.75,CA,1675541139
111,hofn,64.2539,-15.2082,0.81,57,4,6.32,IS,1675541528
112,rosarito,32.3333,-117.0333,23.56,52,50,3.46,MX,1675541528
113,kavieng,-2.5744,150.7967,27.39,73,97,2.0,PG,1675541178
114,buala,-8.145,159.5921,26.29,85,100,2.78,SB,1675541529
115,san policarpo,12.1791,125.5072,25.84,85,99,6.92,PH,1675541198
116,faanui,-16.4833,-151.75,27.47,71,69,7.89,PF,1675541249
117,ilhabela,-23.7781,-45.3581,29.35,69,92,1.83,BR,1675541529
118,nelson bay,-32.7167,152.15,19.44,67,0,3.58,AU,1675541196
119,shimoda,34.6667,138.95,7.53,68,25,4.12,JP,1675541529
120,pangnirtung,66.1451,-65.7125,-37.0,67,0,1.03,CA,1675541060
121,harper,4.375,-7.7169,26.94,82,8,4.23,LR,1675541530
122,beringovskiy,63.05,179.3167,-30.14,92,38,6.05,RU,1675541172
123,shizunai,42.3339,142.3669,-5.87,74,14,3.27,JP,1675541530
124,wilhelmshaven,53.5167,8.1333,2.22,70,29,3.76,DE,1675541531
125,tanete,-3.9443,119.7848,24.02,90,99,0.44,ID,1675541531
126,new norfolk,-42.7826,147.0587,13.29,64,23,1.57,AU,1675541199
127,te anau,-45.4167,167.7167,18.21,98,100,1.81,NZ,1675541497
128,georgetown,5.4112,100.3354,25.96,88,20,2.57,MY,1675541159
129,port elizabeth,-33.918,25.5701,24.62,83,0,2.06,ZA,1675541188
130,constitucion,-35.3333,-72.4167,20.15,74,43,3.34,CL,1675541523
131,grootfontein,-19.5667,18.1167,21.93,71,99,3.02,NA,1675541531
132,hilo,19.7297,-155.09,22.92,98,100,0.45,US,1675541532
133,puerto penasco,31.3167,-113.5333,16.06,68,0,2.68,MX,1675541532
134,mayo,38.8876,-76.5119,0.64,45,0,5.66,US,1675541212
135,tres arroyos,-38.3739,-60.2798,29.59,25,0,4.18,AR,1675541532
136,cape town,-33.9258,18.4232,22.28,84,20,5.66,ZA,1675540905
137,umarkot,25.3616,69.7362,19.53,32,1,3.66,PK,1675541533
138,jamestown,42.097,-79.2353,-3.32,35,20,7.72,US,1675541015
139,nikolskoye,59.7035,30.7861,-2.06,92,100,3.57,RU,1675541252
140,tuy hoa,13.0833,109.3,22.86,85,97,1.06,VN,1675541533
141,sisimiut,66.9395,-53.6735,-22.0,96,70,4.04,GL,1675541534
142,saint george,37.1041,-113.5841,13.57,35,0,0.89,US,1675541250
143,husavik,66.0449,-17.3389,-2.46,70,3,5.68,IS,1675541231
144,hasaki,35.7333,140.8333,2.34,56,2,7.69,JP,1675541216
145,college,64.8569,-147.8028,-12.03,78,75,1.54,US,1675541534
146,kapoeta,4.7717,33.5903,29.81,26,60,3.01,SS,1675541535
147,hay river,60.8156,-115.7999,-23.53,92,87,0.98,CA,1675541535
148,vestmannaeyjar,63.4427,-20.2734,4.56,64,100,11.21,IS,1675541424
149,narsaq,60.9167,-46.05,0.12,90,100,8.76,GL,1675541526
150,quatre cocos,-20.2078,57.7625,26.16,85,64,4.53,MU,1675540973
151,acari,-15.4311,-74.6158,26.52,75,100,3.66,PE,1675541536
152,canavieiras,-15.675,-38.9472,28.24,71,1,4.21,BR,1675541524
153,la sarre,48.8002,-79.1996,-13.35,93,100,6.05,CA,1675541536
154,lata,40.1629,-8.3327,12.12,74,0,1.71,PT,1675541537
155,waingapu,-9.6567,120.2641,24.34,92,100,3.17,ID,1675541154
156,zalau,47.2,23.05,-3.3,79,100,6.15,RO,1675541537
157,grand gaube,-20.0064,57.6608,26.32,77,99,0.89,MU,1675541449
158,provideniya,64.3833,-173.3,-19.89,89,100,4.75,RU,1675541490
159,nushki,29.5542,66.0215,15.41,43,0,2.29,PK,1675541537
160,rafraf,37.1904,10.1837,13.17,66,100,9.84,TN,1675541538
161,gamba,-2.65,10.0,25.48,86,97,1.09,GA,1675541538
162,salalah,17.0151,54.0924,23.05,78,40,1.03,OM,1675541448
163,cayenne,4.9333,-52.3333,25.02,94,75,3.09,GF,1675541349
164,chaiyaphum,15.75,102.0,25.78,73,100,1.49,TH,1675541538
165,nemuro,43.3236,145.575,-5.49,76,26,4.78,JP,1675541539
166,plettenberg bay,-34.0527,23.3716,22.4,73,36,1.39,ZA,1675541539
167,dharchula,29.85,80.5333,10.28,34,1,3.59,IN,1675541211
168,airai,-8.9266,125.4092,15.69,91,100,0.94,TL,1675541158
169,thompson,55.7435,-97.8558,-17.93,86,97,1.48,CA,1675541208
170,grindavik,63.8424,-22.4338,3.26,65,75,10.29,IS,1675541025
171,dikson,73.5069,80.5464,-20.8,98,100,1.44,RU,1675541256
172,chuy,-33.6971,-53.4616,24.2,57,1,7.39,UY,1675541227
173,cockburn town,21.4612,-71.1419,25.23,73,0,7.35,TC,1675541539
174,vao,-22.6667,167.4833,26.25,87,81,8.92,NC,1675541225
175,hobart,-42.8794,147.3294,13.48,71,20,4.63,AU,1675540955
176,lucea,18.451,-78.1736,26.59,71,24,4.54,JM,1675541540
177,baglung,28.2719,83.5898,10.13,61,2,2.4,NP,1675541541
178,ponta delgada,37.7333,-25.6667,15.4,82,20,3.6,PT,1675541488
179,kruisfontein,-34.0033,24.7314,23.1,67,100,2.42,ZA,1675541534
180,union hidalgo,16.4723,-94.8295,24.21,50,5,11.12,MX,1675541541
181,mangrol,21.1167,70.1167,21.09,38,6,3.17,IN,1675541355
182,goderich,43.7501,-81.7165,-4.49,68,73,10.29,CA,1675541184
183,porbandar,21.6422,69.6093,20.98,42,6,3.86,IN,1675541542
184,byron bay,-28.65,153.6167,23.3,84,100,3.49,AU,1675541444
185,wakkanai,45.4094,141.6739,-5.82,69,100,4.7,JP,1675541542
186,umm lajj,25.0213,37.2685,19.68,52,9,4.18,SA,1675541283
187,dombarovskiy,50.7587,59.5386,-18.56,88,31,3.04,RU,1675541543
188,cairns,-16.9167,145.7667,26.7,94,100,4.12,AU,1675541543
189,isangel,-19.55,169.2667,28.06,94,75,0.0,VU,1675541544
190,wanlaweyn,2.6185,44.8938,23.7,67,36,6.76,SO,1675541268
191,katsuura,35.1333,140.3,6.94,70,4,5.26,JP,1675541224
192,puerto ayacucho,5.6639,-67.6236,34.29,37,66,2.6,VE,1675541261
193,hami,42.8,93.45,-0.85,36,100,1.97,CN,1675541452
194,sao jose da coroa grande,-8.8978,-35.1478,27.18,74,56,4.08,BR,1675541545
195,lima,-12.0432,-77.0282,25.14,65,0,7.72,PE,1675541122
196,mosquera,4.7059,-74.2302,18.05,63,75,10.29,CO,1675541545
197,artigas,-30.4,-56.4667,31.75,19,0,6.93,UY,1675541545
198,ust-maya,60.4167,134.5333,-33.81,100,100,0.43,RU,1675541546
199,zhangye,38.9342,100.4517,-3.51,46,10,1.02,CN,1675541546
200,caravelas,-17.7125,-39.2481,28.26,71,7,4.98,BR,1675541382
201,singaparna,-7.3515,108.111,21.69,89,97,1.38,ID,1675541546
202,olafsvik,64.8945,-23.7142,2.82,68,99,11.99,IS,1675541315
203,marzuq,14.4,46.4667,17.93,72,18,1.72,YE,1675541547
204,tazovskiy,67.4667,78.7,-14.19,96,100,1.86,RU,1675541547
205,tra vinh,9.9347,106.3453,24.52,78,96,5.35,VN,1675541548
206,aklavik,68.2191,-135.0107,-40.12,99,53,0.69,CA,1675541447
207,trinidad,-14.8333,-64.9,28.99,70,40,2.06,BO,1675541548
208,sorgun,39.8101,35.186,-3.0,91,100,1.52,TR,1675541549
209,almaznyy,48.0448,40.045,-6.02,94,15,1.23,RU,1675541549
210,novoorsk,51.381,58.9813,-20.23,91,17,3.7,RU,1675541550
211,omboue,-1.5746,9.2618,26.1,85,99,2.04,GA,1675541474
212,revelstoke,50.9832,-118.2023,1.01,93,100,1.03,CA,1675541444
213,kyshtovka,56.555,76.6271,-19.26,100,100,0.41,RU,1675541550
214,kanigoro,-8.13,112.219,22.69,86,99,1.26,ID,1675541550
215,clyde river,70.4692,-68.5914,-24.66,87,100,2.79,CA,1675541551
216,san pedro del parana,-26.8333,-56.2,33.79,23,87,1.75,PY,1675541551
217,akdagmadeni,39.6603,35.8836,-3.06,87,100,1.74,TR,1675541551
218,sirsa,29.5333,75.0167,14.58,34,0,2.59,IN,1675541552
219,tiksi,71.6872,128.8694,-25.29,100,100,2.09,RU,1675541537
220,evensk,61.95,159.2333,-19.25,82,100,3.73,RU,1675541256
221,cordoba,-31.4135,-64.1811,30.98,32,2,0.45,AR,1675541366
222,yenisehir,40.2644,29.6531,2.03,100,75,0.51,TR,1675541458
223,deputatskiy,69.3,139.9,-34.69,99,99,1.67,RU,1675541552
224,merauke,-8.4667,140.3333,24.75,92,100,2.59,ID,1675541552
225,hakui,36.8833,136.7833,2.91,86,100,2.23,JP,1675541553
226,igrim,63.1906,64.4162,-14.4,98,100,1.68,RU,1675541553
227,torbay,47.6666,-52.7314,-13.01,81,100,14.4,CA,1675541482
228,guilin,25.2819,110.2864,7.93,89,100,2.09,CN,1675541256
229,katherine,-14.4667,132.2667,23.18,94,15,0.0,AU,1675541323
230,akhtanizovskaya,45.32,37.1,1.94,77,93,4.19,RU,1675541553
231,aquiraz,-3.9014,-38.3911,29.05,76,87,4.17,BR,1675541554
232,longyearbyen,78.2186,15.6401,-11.09,79,0,6.17,SJ,1675541235
233,ordynskoye,54.3656,81.8994,-19.15,100,100,1.85,RU,1675541554
234,sorland,67.667,12.6934,2.92,90,100,17.47,NO,1675541554
235,ambon,-3.6954,128.1814,24.08,94,40,2.57,ID,1675541555
236,havoysund,70.9963,24.6622,-2.87,84,100,4.24,NO,1675541555
237,port blair,11.6667,92.75,26.02,89,40,1.03,IN,1675541036
238,ribeira grande,38.5167,-28.7,17.1,88,20,4.92,PT,1675541131
239,shenzhen,22.5455,114.0683,17.97,89,100,2.27,CN,1675541555
240,magadan,59.5667,150.8,-25.0,82,59,2.89,RU,1675541555
241,lebu,-37.6167,-73.65,18.98,79,51,4.85,CL,1675541253
242,avarua,-21.2078,-159.775,28.03,83,40,6.69,CK,1675541176
243,talnakh,69.4865,88.3972,-11.55,96,100,2.72,RU,1675541554
244,rodrigues alves,-7.738,-72.6509,27.29,78,99,1.53,BR,1675541556
245,christchurch,-43.5333,172.6333,26.29,57,97,7.2,NZ,1675541431
246,udachnyy,66.4167,112.4,-40.31,72,92,0.09,RU,1675541556
247,zelenets,61.8849,50.7489,-8.86,100,100,0.46,RU,1675541556
248,mehamn,71.0357,27.8492,-2.03,80,100,1.54,NO,1675541265
249,santo antonio do leverger,-15.8656,-56.0767,31.21,58,100,0.84,BR,1675541557
250,nanortalik,60.1432,-45.2371,-3.39,81,100,11.95,GL,1675541138
251,tocopilla,-22.092,-70.1979,23.72,73,8,1.95,CL,1675541339
252,damaturu,11.747,11.9608,25.22,14,98,4.4,NG,1675541557
253,yar-sale,66.8333,70.8333,-10.65,96,100,2.21,RU,1675541489
254,qaanaaq,77.484,-69.3632,-18.87,66,100,2.48,GL,1675541223
255,mikkeli,61.6886,27.2723,-14.92,85,0,2.06,FI,1675541558
256,aksha,50.2814,113.2867,-20.61,98,69,1.82,RU,1675541558
257,hearst,49.6835,-83.6665,-6.35,85,100,4.97,CA,1675541522
258,pinega,64.7001,43.3936,-22.01,100,39,1.49,RU,1675541558
259,itarema,-2.9248,-39.9167,27.5,76,41,6.69,BR,1675541559
260,chongwe,-15.3292,28.682,19.01,94,100,0.85,ZM,1675541559
261,tessalit,20.1986,1.0114,17.48,14,65,4.78,ML,1675541465
262,progreso,21.2833,-89.6667,22.06,72,66,7.7,MX,1675541559
263,verkhnyaya inta,65.9811,60.3094,-13.67,98,94,2.62,RU,1675541559
264,kartarpur,31.44,75.4997,11.68,66,2,2.73,IN,1675541560
265,gorom-gorom,14.4439,-0.2361,28.29,13,38,4.48,BF,1675541560
266,naze,28.3667,129.4833,12.82,68,100,4.81,JP,1675541255
267,nha trang,12.25,109.1833,24.0,81,100,2.18,VN,1675541470
268,mudon,16.2578,97.7164,23.16,85,4,0.77,MM,1675541560
269,panalingaan,8.7842,117.4231,24.69,84,96,1.07,PH,1675541539
270,cabedelo,-6.9811,-34.8339,29.37,74,42,5.75,BR,1675541561
271,pisco,-13.7,-76.2167,24.03,83,0,3.6,PE,1675541432
272,mutis,6.2262,-77.4044,27.65,77,100,3.25,CO,1675541561
273,chengzihe,45.3333,131.0667,-15.39,94,100,1.08,CN,1675541562
274,trois-rivieres,46.3501,-72.5491,-21.96,64,97,2.68,CA,1675541414
275,mollendo,-17.0231,-72.0147,25.15,74,60,3.02,PE,1675541562
276,kuala sungai baru,2.3594,102.0353,24.12,87,100,4.38,MY,1675541562
277,asheville,35.6009,-82.554,9.23,40,0,3.6,US,1675541537
278,camacha,33.0833,-16.3333,14.68,63,40,6.69,PT,1675541521
279,zhuhai,22.2769,113.5678,18.81,82,40,2.57,CN,1675541504
280,solnechnyy,50.7214,136.6319,-25.39,98,98,1.15,RU,1675541563
281,carnarvon,-24.8667,113.6333,25.65,72,2,1.63,AU,1675541150
282,georgiyevka,43.0369,74.7114,1.02,80,0,5.0,KZ,1675541563
283,dingle,10.9995,122.6711,23.63,94,99,4.1,PH,1675541448
284,rocha,-34.4833,-54.3333,21.03,81,52,8.63,UY,1675541328
285,kishi,9.0833,3.85,31.32,16,38,1.83,NG,1675541563
286,brae,60.3964,-1.353,6.34,64,100,11.38,GB,1675541564
287,kenai,60.5544,-151.2583,-4.36,87,100,2.06,US,1675541262
288,tautira,-17.7333,-149.15,26.22,78,56,6.16,PF,1675540972
289,mar del plata,-38.0023,-57.5575,23.79,64,0,7.72,AR,1675541014
290,saldanha,-33.0117,17.9442,18.88,96,81,6.94,ZA,1675541483
291,zonguldak,41.25,31.8333,-1.09,75,99,1.94,TR,1675541564
292,hammerfest,70.6634,23.6821,-1.75,80,40,2.06,NO,1675541500
293,villa guerrero,18.8667,-99.65,21.82,34,2,2.8,MX,1675541564
294,souillac,-20.5167,57.5167,25.46,86,52,4.77,MU,1675541247
295,mocajuba,-2.5842,-49.5072,26.95,87,68,1.81,BR,1675541565
296,borovoy,55.4333,86.0833,-18.4,84,40,1.0,RU,1675541565
297,dandong,40.1292,124.3947,-5.43,63,1,1.79,CN,1675541361
298,lahij,13.1667,44.5833,21.03,80,28,1.56,YE,1675541565
299,fortuna,40.5982,-124.1573,15.37,59,100,5.36,US,1675541244
300,nome,64.5011,-165.4064,-11.96,85,100,3.6,US,1675541468
301,codrington,-38.2667,141.9667,14.21,82,100,2.63,AU,1675541566
302,luderitz,-26.6481,15.1594,17.71,85,5,7.26,NA,1675541192
303,codajas,-3.8367,-62.0569,24.81,89,99,0.46,BR,1675541567
304,upernavik,72.7868,-56.1549,-21.15,95,100,3.15,GL,1675541429
305,coquimbo,-29.9533,-71.3436,22.85,64,0,4.63,CL,1675541231
306,shellbrook,53.2168,-106.4011,-6.01,91,100,1.23,CA,1675541567
307,poum,-20.2333,164.0167,27.35,79,48,2.03,NC,1675541208
308,opuwo,-18.0607,13.84,23.5,29,88,0.84,NA,1675541333
309,saint-georges,12.0564,-61.7485,26.25,78,3,7.8,GD,1675541567
310,anastacio,-20.4836,-55.8069,30.76,46,46,1.53,BR,1675541567
311,bowen,-20.0167,148.2333,26.04,89,100,3.85,AU,1675541568
312,makaha,21.4694,-158.2175,22.53,72,100,2.57,US,1675541568
313,ancud,-41.8697,-73.8203,21.01,65,43,2.21,CL,1675541441
314,powell river,49.8496,-124.5361,9.44,90,100,5.63,CA,1675541569
315,erzin,36.9559,36.2,6.35,78,100,2.12,TR,1675541569
316,ilulissat,69.2167,-51.1,-18.99,78,40,3.09,GL,1675541232
317,lavrentiya,65.5833,-171.0,-25.35,95,96,3.12,RU,1675541225
318,boysun,38.2061,67.1986,4.58,59,100,2.85,UZ,1675541569
319,stettler,52.3168,-112.7186,0.27,81,81,3.84,CA,1675541570
320,kavaratti,10.5669,72.642,27.42,67,99,2.59,IN,1675541549
321,ixtapa,20.7,-105.2,24.57,73,40,5.66,MX,1675541343
322,elko,41.0002,-115.5012,-1.64,63,91,1.34,US,1675541570
323,fairbanks,64.8378,-147.7164,-12.02,79,100,1.54,US,1675541570
324,nishihara,26.1842,127.7558,16.6,85,100,4.12,JP,1675541572
325,phan thiet,10.9333,108.1,21.48,87,24,3.71,VN,1675541192
326,kismayo,-0.3582,42.5454,24.66,82,25,6.26,SO,1675541572
327,sanming,26.2486,117.6186,12.69,99,100,0.84,CN,1675541572
328,zigong,29.3416,104.7769,11.78,71,84,1.55,CN,1675541573
329,marystown,47.1666,-55.1483,-13.92,89,100,14.82,CA,1675541573
330,yerbogachen,61.2767,108.0108,-26.02,100,91,1.05,RU,1675541531
331,kihei,20.785,-156.4656,23.5,89,75,7.2,US,1675541573
332,corinto,37.9407,22.9573,10.5,80,82,1.67,GR,1675541574
333,bystryy istok,52.371,84.3873,-11.95,97,100,1.59,RU,1675541574
334,geraldton,-28.7667,114.6,21.23,88,75,1.54,AU,1675541434
335,suda,59.1525,37.5582,-2.94,97,95,2.45,RU,1675541575
336,broken hill,-31.95,141.4333,15.54,58,0,4.68,AU,1675541188
337,manta,-0.95,-80.7333,27.88,74,75,4.63,EC,1675541575
338,jinchang,38.4953,102.1739,-1.86,37,0,0.55,CN,1675541310
339,hualmay,-11.0964,-77.6139,24.87,71,89,4.17,PE,1675541575
340,gigmoto,13.7796,124.39,24.94,88,95,6.04,PH,1675541575
341,kahului,20.8947,-156.47,23.5,90,75,7.2,US,1675541199
342,banjar,-8.19,114.9675,24.87,90,100,0.67,ID,1675541576
343,masuda,34.6667,131.85,1.91,74,45,2.04,JP,1675541576
344,avera,33.194,-82.5271,10.77,33,9,3.19,US,1675541514
345,los llanos de aridane,28.6585,-17.9182,14.86,68,40,3.13,ES,1675541177
346,lompoc,34.6391,-120.4579,20.94,70,0,4.12,US,1675541439
347,alice springs,-23.7,133.8833,12.75,82,4,0.0,AU,1675541576
348,voh,-20.9667,164.7,26.98,84,9,1.88,NC,1675541577
349,santa cruz,-17.8,-63.1667,29.03,54,75,4.63,BO,1675541577
350,martapura,-3.4167,114.85,25.05,100,100,0.51,ID,1675541315
351,bharatpur,27.2167,77.4833,15.29,42,0,2.94,IN,1675541577
352,pevek,69.7008,170.3133,-37.78,100,89,1.0,RU,1675540977
353,yeppoon,-23.1333,150.7333,25.88,89,58,3.57,AU,1675541578
354,cowra,-33.8333,148.6833,12.65,70,0,0.8,AU,1675541578
355,kitimat,54.0524,-128.6534,1.06,32,100,1.06,CA,1675541578
356,champerico,14.3,-91.9167,29.22,59,2,5.58,GT,1675541204
357,dasoguz,41.8363,59.9666,2.85,70,6,5.92,TM,1675541579
358,kelheim,48.9167,11.8667,0.14,77,54,1.44,DE,1675541579
359,terney,45.0503,136.6092,-12.84,79,80,2.95,RU,1675541579
360,novikovo,51.1537,37.8879,-3.65,95,99,3.54,RU,1675541579
361,sinnamary,5.3833,-52.95,25.23,88,100,6.97,GF,1675541516
362,north platte,41.1239,-100.7654,7.29,63,0,6.71,US,1675541436
363,san carlos de bariloche,-41.1456,-71.3082,33.47,28,4,3.31,AR,1675541578
364,matara,5.9485,80.5353,23.69,92,47,2.37,LK,1675541193
365,lazaro cardenas,17.9583,-102.2,30.1,44,0,5.36,MX,1675541088
366,agropoli,40.3469,14.9966,7.88,56,6,4.65,IT,1675541580
367,songjianghe,42.1859,127.479,-14.02,81,58,3.19,CN,1675541580
368,sioux lookout,50.1001,-91.917,-11.48,88,100,1.85,CA,1675541580
369,oranjemund,-28.55,16.4333,17.51,93,3,3.7,NA,1675541581
370,mackenzie,55.2999,-123.1698,0.12,100,100,4.63,CA,1675541581
371,adrar,20.5022,-10.0711,17.53,15,100,4.43,MR,1675541228
372,kaset sombun,16.2805,101.9542,24.56,82,100,0.9,TH,1675541582
373,dali,25.7,100.1833,5.97,58,7,2.48,CN,1675541582
374,temba,-25.3803,28.2631,23.95,74,52,4.74,ZA,1675541583
375,paamiut,61.994,-49.6678,-8.75,75,100,5.09,GL,1675541245
376,saint-francois,46.4154,3.9054,7.04,94,0,1.54,FR,1675541583
377,namatanai,-3.6667,152.4333,25.98,82,100,1.25,PG,1675541066
378,yinchuan,38.4681,106.2731,-1.72,30,0,0.78,CN,1675541584
379,marawi,7.9986,124.2928,19.38,90,100,0.7,PH,1675541424
380,bon air,37.5249,-77.5578,2.83,31,0,3.6,US,1675541584
381,kushima,31.4583,131.2333,7.14,84,100,2.07,JP,1675541585
382,dunedin,-45.8742,170.5036,20.45,84,100,2.24,NZ,1675541209
383,greystones,53.1408,-6.0631,7.17,86,100,5.77,IE,1675541585
384,chapais,49.7834,-74.8492,-22.12,91,100,4.15,CA,1675541586
385,kupang,-10.1667,123.5833,25.24,91,100,6.57,ID,1675541586
386,jalu,29.0331,21.5482,13.35,49,100,2.81,LY,1675541316
387,rehoboth,-23.3167,17.0833,25.17,38,100,7.1,NA,1675541587
388,salur,18.5333,83.2167,18.49,72,5,0.85,IN,1675541316
389,whitianga,-36.8333,175.7,20.34,81,37,2.78,NZ,1675541587
390,kungurtug,50.5994,97.5228,-18.43,97,99,0.73,RU,1675541587
391,belyy yar,53.6039,91.3903,-25.06,84,20,1.0,RU,1675541495
392,plouzane,48.3833,-4.6167,7.18,76,100,1.54,FR,1675541588
393,gawler,-34.6,138.7333,12.73,95,7,1.76,AU,1675541535
394,puerto madero,14.7208,-92.4215,32.11,51,20,7.72,MX,1675541588
395,ligayan,4.6533,119.4706,27.16,77,88,2.97,PH,1675541570
396,pindiga,9.9833,10.9333,27.86,16,42,3.57,NG,1675541589
397,panzhihua,26.5851,101.7128,8.88,44,0,1.0,CN,1675541589
398,urengoy,65.9667,78.3667,-13.63,96,100,2.81,RU,1675541590
399,high level,58.5169,-117.136,-13.94,92,100,1.03,CA,1675541468
400,pontianak,-0.0333,109.3333,23.99,100,75,1.03,ID,1675541325
401,shingu,33.7333,135.9833,2.5,80,19,3.55,JP,1675541522
402,kodinsk,58.6881,99.1844,-15.77,98,99,1.27,RU,1675541590
403,agadez,19.75,10.25,21.84,15,9,2.85,NE,1675541591
404,port-gentil,-0.7193,8.7815,27.65,78,100,4.78,GA,1675541591
405,kumano,34.3442,132.5894,-0.49,71,2,2.62,JP,1675541591
406,onojo,33.5357,130.4786,1.61,80,5,1.54,JP,1675541592
407,pozo colorado,-23.4923,-58.7972,34.14,28,49,1.07,PY,1675541592
408,slavsk,55.0425,21.677,-3.0,76,19,4.14,RU,1675541592
409,prabumulih,-3.45,104.25,22.98,97,100,1.31,ID,1675541593
410,bilma,18.6853,12.9164,23.76,14,28,2.55,NE,1675541210
411,saint anthony,45.0205,-93.218,-1.8,64,0,3.6,US,1675541466
412,chernyshevskiy,63.0128,112.4714,-35.63,100,100,1.43,RU,1675541532
413,bahia de caraquez,-0.6,-80.4167,28.1,88,100,2.35,EC,1675541593
414,ajdabiya,30.7554,20.2263,12.86,61,19,2.24,LY,1675541567
415,galesong,-5.3166,119.3661,24.01,82,100,3.08,ID,1675541259
416,kysyl-syr,63.8986,122.7617,-31.66,98,100,2.07,RU,1675541593
417,klaksvik,62.2266,-6.589,4.51,62,12,13.79,FO,1675541185
418,faya,18.3851,42.4509,11.29,66,86,1.23,SA,1675541594
419,marsa matruh,31.3525,27.2453,14.01,65,53,5.91,EG,1675541594
420,asfi,32.2994,-9.2372,14.21,72,0,2.26,MA,1675541538
421,cherskiy,68.75,161.3,-37.34,100,93,2.39,RU,1675541433
422,yumen,40.2833,97.2,-3.11,38,100,5.18,CN,1675541483
423,usingen,50.3333,8.5333,5.31,72,86,0.42,DE,1675541595
424,sakaiminato,35.55,133.2333,4.31,59,65,0.74,JP,1675541595
425,sola,-13.8833,167.55,27.43,83,100,11.54,VU,1675541499
426,walvis bay,-22.9575,14.5053,18.38,78,100,6.19,NA,1675541596
427,tabou,4.423,-7.3528,26.75,83,5,4.08,CI,1675541596
428,belem,-1.4558,-48.5044,27.02,89,20,3.6,BR,1675541060
429,kabare,-2.4683,28.8242,16.69,82,72,0.87,CD,1675541596
430,aripuana,-9.1667,-60.6333,27.65,81,100,0.92,BR,1675541597
431,pacific grove,36.6177,-121.9166,17.72,78,20,9.39,US,1675541211
432,finspang,58.7058,15.7674,-6.94,89,26,1.4,SE,1675541598
433,smithers,54.7804,-127.1743,2.59,100,98,1.47,CA,1675541445
434,ploemeur,47.7333,-3.4333,8.3,78,100,1.54,FR,1675541598
435,sakakah,29.9697,40.2064,10.14,50,0,3.34,SA,1675541442
436,aksarka,66.5606,67.7975,-12.4,97,97,2.56,RU,1675541199
437,charlestown,-32.95,151.6667,18.56,57,0,1.34,AU,1675541599
438,omsukchan,62.5333,155.8,-29.99,97,100,1.93,RU,1675541599
439,menongue,-14.6585,17.691,16.8,89,98,1.18,AO,1675541599
440,ust-tsilma,65.441,52.1498,-18.12,100,91,1.29,RU,1675541600
441,kamaishi,39.2667,141.8833,-2.04,74,5,3.1,JP,1675541214
442,mount isa,-20.7333,139.5,20.87,43,100,4.12,AU,1675541212
443,whitehorse,60.7161,-135.0538,-11.77,82,93,2.68,CA,1675541402
444,dothan,31.2232,-85.3905,16.11,43,0,2.57,US,1675541600
445,zaraysk,54.7653,38.8836,-6.75,98,100,1.51,RU,1675541600
446,port macquarie,-31.4333,152.9167,16.05,82,1,2.1,AU,1675541601
447,oyem,1.5995,11.5793,22.34,83,18,2.06,GA,1675541601
448,bahadurganj,26.2667,87.8167,14.85,57,0,2.79,IN,1675541601
449,sechura,-5.5569,-80.8222,28.01,56,95,8.0,PE,1675541601
450,tomari,47.7658,142.0683,-14.8,93,21,1.89,RU,1675541602
451,saint-joseph,-21.3667,55.6167,25.21,85,98,4.87,RE,1675541603
452,na wa,17.4897,104.1006,22.51,86,99,2.03,TH,1675541603
453,pinheiro,-2.5214,-45.0825,27.04,82,99,2.6,BR,1675541603
454,ambulu,-8.345,113.6058,24.7,87,100,1.19,ID,1675541604
455,shahpura,27.3833,75.9667,14.95,35,0,1.54,IN,1675541604
456,scaesti,44.4667,23.5833,4.03,82,100,1.87,RO,1675541604
457,tarko-sale,64.9225,77.785,-12.86,94,100,3.71,RU,1675541605
458,valleyview,55.0667,-117.2859,0.89,97,97,1.83,CA,1675541605
459,zhigansk,66.7697,123.3711,-41.48,96,52,5.34,RU,1675541312
460,tambura,5.6,27.4667,24.91,18,37,2.37,SS,1675541606
461,srednekolymsk,67.45,153.6833,-35.13,100,100,1.26,RU,1675541606
462,koslan,63.4564,48.8989,-19.45,100,100,1.01,RU,1675541606
463,brigantine,39.4101,-74.3646,-1.66,45,0,4.92,US,1675541506
464,hanzhong,33.0728,107.0303,6.69,58,78,0.54,CN,1675541607
465,tanout,14.9709,8.8879,25.28,15,88,4.26,NE,1675541607
466,fujin,47.26,132.0322,-16.39,98,100,1.31,CN,1675541607
467,sukumo,32.9333,132.7333,1.74,81,5,2.52,JP,1675541534
468,nizwa,22.9333,57.5333,21.52,55,0,0.51,OM,1675541608
469,raciborz,50.0919,18.2193,-0.18,90,100,5.9,PL,1675541608
470,troitskoye,52.9821,84.6757,-17.51,99,93,1.99,RU,1675541609
471,fuling,29.7022,107.3919,8.6,80,92,1.36,CN,1675541609
472,mamaku,-38.1,176.0833,19.0,83,94,1.82,NZ,1675541609
473,uberaba,-19.7483,-47.9319,24.44,85,100,2.2,BR,1675541610
474,sidhi,24.4167,81.8833,14.84,36,4,1.7,IN,1675541610
475,nassau,40.7507,-73.5829,-4.18,32,0,2.06,US,1675541611
476,sistranda,63.7256,8.834,0.98,55,100,5.48,NO,1675541501
477,chissamba,-12.1667,17.3333,18.21,91,100,0.6,AO,1675541611
478,khipro,25.8285,69.3772,20.12,29,0,3.67,PK,1675541611
479,alyangula,-13.8483,136.4192,26.73,60,98,0.87,AU,1675541612
480,guantanamo,20.1444,-75.2092,28.76,54,68,2.97,CU,1675541612
481,freeport,40.6576,-73.5832,-4.01,32,0,3.6,US,1675541612
482,tubuala,9.5167,-79.0333,26.28,78,43,7.73,PA,1675541496
483,ballangen,68.3428,16.8315,1.12,69,40,4.63,NO,1675541613
484,wageningen,51.9667,5.6667,8.25,91,100,0.51,NL,1675541613
485,quelimane,-17.8786,36.8883,26.97,89,20,2.06,MZ,1675541614
486,tigil,57.8,158.6667,-28.42,100,44,1.24,RU,1675541371
487,salym,60.0625,71.4789,-18.69,98,89,1.71,RU,1675541614
488,wilmington,34.2257,-77.9447,8.25,47,0,4.02,US,1675541499
489,gadu,17.6292,121.6105,19.27,90,97,1.01,PH,1675541614
490,ayacucho,-13.1583,-74.2239,17.92,55,75,1.03,PE,1675541614
491,port hardy,50.6996,-127.4199,7.43,88,100,10.61,CA,1675541615
492,ereymentau,51.6199,73.1033,-19.33,98,99,2.41,KZ,1675541615
493,ferrol,43.4832,-8.2369,11.26,79,0,4.41,ES,1675541615
494,ariyalur,11.1333,79.0833,20.83,89,3,3.07,IN,1675541615
495,touros,-5.1989,-35.4608,27.67,74,93,6.66,BR,1675541545
496,seropedica,-22.7439,-43.7075,35.77,70,99,2.58,BR,1675541533
497,jasper,37.2001,-94.3502,11.17,52,0,7.2,US,1675541616
498,warrnambool,-38.3833,142.4833,14.39,81,100,3.19,AU,1675541616
499,namibe,-15.1961,12.1522,21.66,77,30,4.3,AO,1675541454
500,churapcha,62.0025,132.4325,-35.56,100,100,0.12,RU,1675541616
501,kutum,14.2,24.6667,18.3,15,100,3.89,SD,1675541618
502,bathsheba,13.2167,-59.5167,28.34,69,40,9.77,BB,1675541618
503,broome,42.2506,-75.833,-7.73,59,100,3.58,US,1675541220
504,bitkine,11.9801,18.2138,27.06,14,98,3.43,TD,1675541618
505,duncan,34.5023,-97.9578,15.94,47,3,9.83,US,1675541619
506,port lincoln,-34.7333,135.8667,15.07,80,43,1.72,AU,1675541445
507,jackson,42.4165,-122.8345,15.21,66,0,2.57,US,1675541502
508,havelock,34.8791,-76.9013,4.43,46,0,5.66,US,1675541619
509,nantucket,41.2835,-70.0995,-8.84,52,0,7.72,US,1675541298
510,boyuibe,-20.4167,-63.2833,29.56,32,98,3.53,BO,1675541619
511,severodvinsk,64.5635,39.8302,-11.29,98,74,2.24,RU,1675541619
512,peleduy,59.6289,112.7406,-17.83,98,100,1.74,RU,1675541620
513,inuvik,68.3499,-133.7218,-38.49,99,33,0.48,CA,1675541620
514,koumac,-20.5667,164.2833,27.18,78,28,1.33,NC,1675541620
515,tura,25.5198,90.2201,13.88,53,0,1.05,IN,1675541484
516,atar,20.5169,-13.0499,18.65,16,99,5.65,MR,1675541529
517,sorong,-0.8833,131.25,25.11,88,100,2.49,ID,1675541621
518,alugan,12.2188,125.4808,25.5,86,97,6.47,PH,1675541538
519,buchanan,5.8808,-10.0467,26.67,84,43,2.67,LR,1675541621
520,horadiz,39.4488,47.3353,5.44,56,100,1.66,AZ,1675541621
521,ossora,59.2353,163.0719,-17.91,87,100,1.37,RU,1675541622
522,maceio,-9.6658,-35.7353,29.69,65,20,5.14,BR,1675541465
523,abu dhabi,24.4667,54.3667,19.06,76,0,1.54,AE,1675541404
524,port hedland,-20.3167,118.5667,26.03,78,21,4.63,AU,1675541622
525,mozhaysk,55.5019,36.0272,-7.12,97,100,2.4,RU,1675541623
526,ubeda,38.0133,-3.3705,6.46,40,0,1.26,ES,1675541623
527,sao joao da barra,-21.6403,-41.0511,31.05,83,7,6.26,BR,1675541207
528,manggar,-2.8833,108.2667,25.29,87,100,3.02,ID,1675541511
529,ahipara,-35.1667,173.1667,19.75,89,100,3.35,NZ,1675540989
530,murupara,-38.4667,176.7,20.37,96,100,1.18,NZ,1675541623
531,jiamusi,46.8333,130.35,-14.16,96,100,1.7,CN,1675541623
532,macas,-2.3167,-78.1167,26.86,57,40,4.63,EC,1675541624
533,santa rosa,14.3122,121.1114,23.99,80,95,3.39,PH,1675541624
534,uberlandia,-18.9186,-48.2772,24.76,71,100,2.64,BR,1675541390
535,farafangana,-22.8167,47.8333,24.12,89,100,3.98,MG,1675541624
536,mitsamiouli,-11.3847,43.2844,27.36,74,98,1.11,KM,1675541625
537,khromtau,50.2503,58.4347,-19.79,94,59,4.53,KZ,1675541625
538,eskisehir,39.7767,30.5206,-3.05,100,100,3.09,TR,1675541625
539,pochutla,15.7432,-96.4661,31.9,39,0,3.88,MX,1675541625
540,conceicao do araguaia,-8.2578,-49.2647,28.69,75,99,1.57,BR,1675541626
541,shakawe,-18.3667,21.85,21.86,86,88,1.8,BW,1675541626
542,kloulklubed,7.0419,134.2556,27.91,76,96,7.73,PW,1675541626
543,hobyo,5.3505,48.5268,24.16,72,59,7.95,SO,1675541627
544,sudzha,51.1976,35.2726,-2.04,94,100,2.7,RU,1675541627
545,masvingo,-20.0637,30.8277,18.95,83,34,1.86,ZW,1675541627
546,jingdezhen,29.2947,117.2079,7.34,97,80,0.85,CN,1675541627
547,talcahuano,-36.7167,-73.1167,17.82,77,100,5.14,CL,1675541628
